{"_id":{"$oid":"5fbe4dd282cd59437861900c"},"influencer":[],"name":"In Management Agency","location":{"type":"Point","coordinates":[41.447532,2.24981]},"street":"Carrer de Santa Anna, 11, 08911 Badalona, Barcelona","createdAt":{"$date":"2020-11-25T12:28:02.326Z"},"updatedAt":{"$date":"2020-11-25T12:28:02.326Z"},"__v":0}
{"_id":{"$oid":"5fbe4dd282cd594378619011"},"influencer":[],"name":"Miranda Talents","location":{"type":"Point","coordinates":[40.437776,-3.684804]},"street":"María de Molina 26, 28006, Madrid","createdAt":{"$date":"2020-11-25T12:28:02.326Z"},"updatedAt":{"$date":"2020-11-25T12:28:02.326Z"},"__v":0}
{"_id":{"$oid":"5fbe4dd282cd59437861900d"},"influencer":[{"$oid":"5fbe4dd282cd594378619013"},{"$oid":"5fbe4dd282cd594378619017"},{"$oid":"5fbe4dd282cd59437861901a"},{"$oid":"5fbe4dd282cd59437861901b"}],"name":"Soy Olivia","location":{"type":"Point","coordinates":[40.447297,-3.669838]},"street":"Calle de López de Hoyos, 135, 28002 Madrid","createdAt":{"$date":"2020-11-25T12:28:02.326Z"},"updatedAt":{"$date":"2020-11-25T12:28:02.437Z"},"__v":0}
{"_id":{"$oid":"5fbe4dd282cd59437861900e"},"influencer":[{"$oid":"5fbe4dd282cd594378619014"},{"$oid":"5fbe4dd282cd594378619016"},{"$oid":"5fbe4dd282cd594378619018"},{"$oid":"5fbe4dd282cd59437861901d"}],"name":"Pop Cont","location":{"type":"Point","coordinates":[40.42237,-3.708689]},"street":"Calle Gran Via 64 4º1ª, 28004, Madrid","createdAt":{"$date":"2020-11-25T12:28:02.326Z"},"updatedAt":{"$date":"2020-11-25T12:28:02.437Z"},"__v":0}
{"_id":{"$oid":"5fbe4dd282cd59437861900f"},"influencer":[{"$oid":"5fbe4dd282cd594378619015"}],"name":"Go Talents","location":{"type":"Point","coordinates":[40.453666,-3.680641]},"street":"Calle Talavera 4, 28016, Madrid","createdAt":{"$date":"2020-11-25T12:28:02.326Z"},"updatedAt":{"$date":"2020-11-25T12:28:02.436Z"},"__v":0}
{"_id":{"$oid":"5fbe4dd282cd594378619010"},"influencer":[{"$oid":"5fbe4dd282cd594378619012"},{"$oid":"5fbe4dd282cd594378619019"},{"$oid":"5fbe4dd282cd59437861901c"}],"name":"Espectalium","location":{"type":"Point","coordinates":[41.396307,2.151293]},"street":"Carrer de Tuset, 19, 1º4ª, 08006 Barcelona","createdAt":{"$date":"2020-11-25T12:28:02.326Z"},"updatedAt":{"$date":"2020-11-25T12:28:02.437Z"},"__v":0}
